호선,역명,구주소,도로명주소,전화번호,위도,경도
1호선,서울,서울특별시 중구 남대문로5가 73-6 서울역(1호선),서울특별시 중구 세종대로 지하2(남대문로 5가),02-6110-1331,37.5571594835988,126.972554606456
1호선,시청,서울특별시 중구 정동 5-5 시청역(1호선),서울특별시 중구 세종대로 지하101(정동),02-6110-1321,37.5654385176408,126.976983237511
1호선,종각,서울특별시 종로구 종로1가 54 종각역(1호선),서울특별시 종로구 종로 지하55(종로1가),02-6110-1311,37.5702140381269,126.983239678933
1호선,종로3가,서울특별시 종로구 종로3가 10-5 종로3가역(1호선),서울특별시 종로구 종로 지하129(종로3가),02-6110-1301,37.5704266025836,126.99202930223
1호선,종로5가,서울특별시 종로구 종로5가 82-1 종로5가역(1호선),서울특별시 종로구 종로 지하216(종로5가),02-6110-1291,37.5709075371016,127.001916647342
1호선,동대문,서울특별시 종로구 창신동 492-1 동대문역(1호선),서울특별시 종로구 종로 지하302(창신동),02-6110-1281,37.5717775660734,127.011167102297
1호선,신설동,서울특별시 동대문구 신설동 76-5 신설동역(1호선),서울특별시 동대문구 왕산로 지하1(신설동),02-6110-1261,37.5747187974165,127.025093714935
1호선,제기동,서울특별시 동대문구 제기동 65 제기동역(1호선),서울특별시 동대문구 왕산로 지하93(제기동),02-6110-1251,37.5781967284885,127.034690599752
1호선,청량리(서울시립대입구),서울특별시 동대문구 전농동 620-69 청량리역(1호선),서울특별시 동대문구 왕산로 지하205(전농동),02-6110-1241,37.5802180961319,127.045121425444
1호선,동묘앞,서울특별시 종로구 숭인동 117 동묘앞역(1호선),서울특별시 종로구 종로 359(숭인동),02-6110-1271,37.5733722075697,127.01675118037
2호선,시청,서울특별시 중구 서소문동 90-1 시청역(2호선),서울특별시 중구 서소문로 지하127(서소문동),02-6110-2011,37.5635793508101,126.975389363157
2호선,을지로입구,서울특별시 중구 을지로1가 100-1 을지로입구역(2호선),서울특별시 중구 을지로 지하42(을지로1가),02-6110-2021,37.5660509513873,126.982372901787
2호선,을지로3가,서울특별시 중구 을지로3가 347-3 을지로3가역(2호선),서울특별시 중구 을지로 지하106(을지로3가),02-6110-2031,37.56626594615,126.990308356253
2호선,을지로4가,서울특별시 중구 을지로4가 267-1 을지로4가역(2호선),서울특별시 중구 을지로 지하178(을지로4가),02-6110-2041,37.5666369941572,126.997852780281
2호선,동대문역사문화공원(DDP),서울특별시 중구 을지로 7가 112-3 동대문역사문화공원역(2호선),서울특별시 중구 을지로 지하279(을지로7가),02-6110-2051,37.5655895229776,127.009131498424
2호선,신당,서울특별시 중구 신당동 99 신당역(2호선),서울특별시 중구 퇴계로 지하431-1(신당동),02-6110-2061,37.5656540317328,127.019540574485
2호선,상왕십리,서울특별시 성동구 하왕십리동 946-14 상왕십리역(2호선),서울특별시 성동구 왕십리로 지하374(하왕십리동),02-6110-2071,37.5644687111181,127.029031221392
2호선,왕십리(성동구청),서울특별시 성동구 행당동 192 왕십리역(2호선),서울특별시 성동구 왕십리로 지하300(행당동),02-6110-2081,37.5612217415191,127.036655378283
2호선,한양대,서울특별시 성동구 행당동 산17 한양대역(2호선),서울특별시 성동구 왕십리로 206(행당동),02-6110-2091,37.55557788354,127.043584493543
2호선,뚝섬,서울특별시 성동구 성수동1가 656-745 뚝섬역(2호선),서울특별시 성동구 아차산로 18(성수동1가),02-6110-2101,37.5471882244091,127.047365178682
2호선,성수,서울특별시 성동구 성수동2가 300-1 성수역(2호선),서울특별시 성동구 아차산로 100(성수동2가),02-6110-2111,37.5445023983984,127.056090471223
2호선,건대입구,서울특별시 광진구 화양동 7-3 2호선 건대입구역(2호선),서울특별시 광진구 아차산로 243(화양동),02-6110-2121,37.5404188872176,127.069173281554
2호선,구의(광진구청),서울특별시 광진구 구의동 245-24 구의역(2호선),서울특별시 광진구 아차산로 384-1(구의동),02-6110-2131,37.5371535596228,127.086179228767
2호선,강변(동서울터미널),서울특별시 광진구 구의동 546-6 강변역(2호선),서울특별시 광진구 강변역로 53(구의동),02-6110-2141,37.5351692767888,127.094664569096
2호선,잠실나루,서울특별시 송파구 신천동 15 잠실나루역(2호선),서울특별시 송파구 오금로 20(신천동),02-6110-2151,37.5206867318088,127.103811089444
2호선,잠실(송파구청),서울특별시 송파구 신천동 8 잠실역(2호선),서울특별시 송파구 올림픽로 지하265(신천동),02-6110-2161,37.513859279255,127.101857941447
2호선,잠실새내,서울특별시 송파구 잠실동 33 잠실새내역(2호선),서울특별시 송파구 올림픽로 지하140(잠실동),02-6110-2171,37.5115918057305,127.086375252836
2호선,종합운동장,서울특별시 송파구 잠실동 122 종합운동장역(2호선),서울특별시 송파구 올림픽로 지하23(잠실동),02-6110-2181,37.5109692748993,127.073356018706
2호선,삼성(무역센터),서울특별시 강남구 삼성동 172-66 삼성역(2호선),서울특별시 강남구 테헤란로 지하538(삼성동),02-6110-2191,37.5088619974404,127.063073009788
2호선,선릉,서울특별시 강남구 삼성동 172-66 선릉역(2호선),서울특별시 강남구 테헤란로 지하340(삼성동),02-6110-2201,37.5045028775835,127.048942471228
2호선,역삼,서울특별시 강남구 역삼동 804 역삼역(2호선),서울특별시 강남구 테헤란로 지하156(역삼동),02-6110-2211,37.5007162693593,127.036618203089
2호선,강남,서울특별시 강남구 역삼동 858 강남역(2호선),서울특별시 강남구 강남대로 지하396(역삼동),02-6110-2221,37.4981646510326,127.028307900881
2호선,"교대(법원, 검찰청)",서울특별시 서초구 서초동 1748-4 교대역(2호선),서울특별시 서초구 서초대로 지하294(서초동),02-6110-2231,37.4928178646055,127.013838469407
2호선,서초,서울특별시 서초구 서초동 1748-5 서초역(2호선),서울특별시 서초구 서초대로 지하233(서초동),02-6110-2241,37.4918229990093,127.007580814715
2호선,방배,서울특별시 서초구 방배동 912-14 방배역(2호선),서울특별시 서초구 방배로 지하80(방배동),02-6110-2251,37.4814364876589,126.997694899327
2호선,사당,서울특별시 동작구 사당동 1129 사당역(2호선),서울특별시 동작구 남부순환로 지하2089(사당동),02-6110-2261,37.4765228347619,126.981408909449
2호선,낙성대(강감찬),서울특별시 관악구 봉천동 1693-39 낙성대역(2호선),서울특별시 관악구 남부순환로 지하1928(봉천동),02-6110-2271,37.4770651843603,126.963409959152
2호선,서울대입구(관악구청),서울특별시 관악구 봉천동 979-2 서울대입구역(2호선),서울특별시 관악구 남부순환로 지하1822(봉천동),02-6110-2281,37.4811526631844,126.952645104944
2호선,봉천,서울툭별시 관악구 봉천동 979-7 봉천역(2호선),서울특별시 관악구 남부순환로 지하1721(봉천동),02-6110-2291,37.4825562153548,126.941495272047
2호선,신림,서울특별시 관악구 신림동 1467-10 신림역(2호선),서울특별시 관악구 남부순환로 지하1614(신림동),02-6110-2301,37.4842176141092,126.92980331103
2호선,신대방,서울특별시 동작구 신대방동 643-1 신대방역(2호선),서울특별시 동작구 대림로 2(신대방동),02-6110-2311,37.4875759745635,126.913175585996
2호선,구로디지털단지,서울특별시 구로구 구로동 810-3 구로디지털단지역(2호선),서울특별시 구로구 도림천로 477(구로동),02-6110-2321,37.4853149237865,126.901494378412
2호선,대림(구로구청),서울특별시 구로구 구로동 1204 대림역(2호선),서울특별시 구로구 도림천로 351(구로동),02-6110-2331,37.4933105886136,126.8949461878
2호선,신도림,서울특별시 구로구 신도림동 460-26 신도림역(2호선),서울특별시 구로구 새말로 지하 117-21(신도림동),02-6110-2341,37.5087701449787,126.891080501385
2호선,문래,서울특별시 영등포구 문래동3가 68-1 문래역(2호선),서울특별시 영등포구 당산로 지하28(문래동3가),02-6110-2351,37.5179214637526,126.894763060556
2호선,영등포구청,서울특별시 영등포구 당산동3가 270-1 영등포구청역(2호선),서울특별시 영등포구 당산로 지하121(당산동3가),02-6110-2361,37.5256996614804,126.896626898379
2호선,당산,서울특별시 영등포구 당산동 6가 323-1 당산역(2호선),서울특별시 영등포구 당산로 229(당산동6가),02-6110-2371,37.534956866618,126.90273071003
2호선,합정,서울특별시 마포구 서교동 393 합정역(2호선),서울특별시 마포구 양화로 지하55(서교동),02-6110-2381,37.5501152068908,126.914638180431
2호선,홍대입구,서울특별시 마포구 동교동 165 홍대입구역(2호선),서울특별시 마포구 양화로 지하160(동교동),02-6110-2391,37.5568904093718,126.923674307594
2호선,신촌(지하),서울특별시 마포구 노고산동 31-11 신촌역(2호선),서울특별시 마포구 신촌로 지하90(노고산동),02-6110-2401,37.5554417865984,126.936119192554
2호선,이대,서울특별시 마포구 염리동 8-85 이대역(2호선),서울특별시 마포구 신촌로 지하180(염리동),02-6110-2411,37.5567980142044,126.945758201019
2호선,아현,서울특별시 마포구 아현동 354-23 아현역(2호선),서울특별시 마포구 신촌로 지하270(아현동),02-6110-2421,37.5573575723061,126.95603374504
2호선,충정로(경기대입구),서울특별시 서대문구 충정로3가 319-1 충정로역(2호선),서울특별시 서대문구 서소문로 지하17(충정로3가),02-6110-2431,37.5598377952439,126.964474043785
2호선,용답,서울특별시 성동구 용답동 127 용답역(2호선),서울특별시 성동구 용답길 86(용답동),02-6110-1341,37.5620049052662,127.050729309179
2호선,신답,서울특별시 성동구 용답동 129-2 신답역(2호선),서울특별시 성동구 천호대로 232(용답동),02-6110-1351,37.5699910562183,127.046820203556
2호선,신설동,서울특별시 동대문구 신설동 76-5 신설동역(2호선),서울특별시 동대문구 왕산로 지하 1(신설동),02-6110-1371,37.5747187974165,127.025093714935
2호선,도림천,서울특별시 구로구 신도림동 323-16 도림천역(2호선),서울특별시 구로구 경인로67길 160(신도림동),02-6110-2441,37.5144420510515,126.882702584468
2호선,양천구청,서울특별시 양천구 신정동 276-7 양천구청역(2호선),서울특별시 양천구 목동로3길 지하33(신정동),02-6110-2451,37.5126989358446,126.866065211751
2호선,신정네거리,서울특별시 양천구 신정동 1231 신정네거리역(2호선),서울특별시 양천구 중앙로 지하261(신정동),02-6110-2461,37.5197975266787,126.852991645059
2호선,용두(동대문구청),서울특별시 동대문구 용두동 47-1 용두역(2호선),서울특별시 동대문구 천호대로 지하129(용두동),02-6110-1361,37.5739380503267,127.038031119837
3호선,지축,경기도 고양시 덕양구 지축동 818-64 지축역(3호선),경기도 고양시 덕양구 삼송로 300(지축동),02-6110-3191,37.6496180734177,126.912167788573
3호선,구파발,서울특별시 은평구 진관동 67-26 구파발역(3호선),서울특별시 은평구 진관2로 지하15-25 (진관동),02-6110-3201,37.6368417889316,126.918745426412
3호선,연신내,서울특별시 은평구 갈현동 397 연신내역(3호선),서울특별시 은평구 통일로 지하849(갈현동),02-6110-3211,37.618962003178,126.921162124977
3호선,불광,서울특별시 은평구 대조동 13-10 불광역(3호선),서울특별시 은평구 통일로 지하723-1(대조동),02-6110-3221,37.6102072578868,126.92998576213
3호선,녹번,서울특별시 은평구 녹번동 55 녹번역(3호선),서울특별시 은평구 통일로 지하602-1(녹번동),02-6110-3231,37.6007672113884,126.936154179023
3호선,홍제,서울특별시 서대문구 홍제동 161-1 홍제역(3호선),서울특별시 서대문구 통일로 지하440-1(홍제동),02-6110-3241,37.5887103667691,126.944242309924
3호선,무악재,서울특별시 서대문구 홍제동 26-1 무악재역(3호선),서울특별시 서대문구 통일로 지하361(홍제동),02-6110-3251,37.5823841472467,126.950322097494
3호선,독립문,서울특별시 서대문구 현저동 101 독립문역(3호선),서울특별시 서대문구 통일로 지하247(현저동),02-6110-3261,37.5744103589329,126.957750279047
3호선,경복궁(정부서울청사),서울특별시 종로구 적선동 81-1 경복궁역(3호선),서울특별시 종로구 사직로 지하130(적선동),02-6110-3271,37.5758613027702,126.973062710191
3호선,안국,서울특별시 종로구 안국동 73-1 안국역(3호선),서울특별시 종로구 율곡로 지하62(안국동),02-6110-3281,37.5767203705556,126.985823042976
3호선,종로3가,서울특별시 종로구 묘동 20-5 종로3가역(3호선),서울특별시 종로구 돈화문로 지하30(묘동),02-6110-3291,37.5711402785938,126.991994361467
3호선,을지로3가,서울특별시 중구 을지로3가 282-8 을지로3가역(3호선),서울특별시 중구 을지로 지하129(을지로3가),02-6110-3301,37.5662750350156,126.992650024369
3호선,충무로,서울특별시 중구 필동2가 16-2 충무로역(3호선),서울특별시 중구 퇴계로 지하214(필동2가),02-6110-4231,37.5612890978954,126.994207448462
3호선,동대입구,서울특별시 중구 장충동2가 199-3 동대입구역(3호선),서울특별시 중구 동호로 지하256(장충동2가),02-6110-3321,37.559030224347,127.005460196954
3호선,약수,서울특별시 중구 신당동 369-44 약수역(3호선),서울특별시 중구 다산로 지하122(신당동),02-6110-3331,37.5545595558163,127.010822526737
3호선,금호,서울특별시 성동구 금호동4가 1470 금호역(3호선),서울특별시 성동구 동호로 지하104(금호동4가),02-6110-3341,37.5481125196986,127.015893753726
3호선,옥수,서울특별시 성동구 옥수동 168-1 옥수역(3호선),서울특별시 성동구 동호로 21(옥수동),02-6110-3351,37.5409877747326,127.018965435917
3호선,압구정,서울특별시 강남구 신사동 668 압구정역(3호선),서울특별시 강남구 압구정로 지하172(신사동),02-6110-3361,37.5264308236177,127.028480919224
3호선,신사,서울특별시 강남구 신사동 667 신사역(3호선),서울특별시 강남구 도산대로 지하102(신사동),02-6110-3371,37.5164324582415,127.020326886309
3호선,잠원,서울특별시 서초구 잠원동 100-1 잠원역(3호선),서울특별시 서초구 잠원로4길 지하46(잠원동),02-6110-3381,37.5127991148107,127.01122017966
3호선,고속터미널,서울특별시 서초구 반포동 19-11 고속터미널역(3호선),서울특별시 서초구 신반포로 지하188(반포동),02-6110-3391,37.5049267445237,127.004949918697
3호선,"교대(법원, 검찰청)",서울특별시 서초구 서초동 1748-4 교대역(3호선),서울특별시 서초구 서초대로 지하294(서초동),02-6110-3401,37.4928178646055,127.013838469407
3호선,남부터미널(예술의전당),서울특별시 서초구 서초동 1748-30 남부터미널역(3호선),서울특별시 서초구 서초중앙로 지하31(서초동),02-6110-3411,37.48514016604,127.016207055102
3호선,양재(서초구청),서울특별시 서초구 서초동 1366-9 양재역(3호선),서울특별시 서초구 남부순환로 지하2585(서초동),02-6110-3421,37.4839347328908,127.034544193436
3호선,매봉,서울특별시 강남구 도곡동 179-2 매봉역(3호선),서울특별시 강남구 남부순환로 지하2744(도곡동),02-6110-3431,37.4869611285839,127.046614560925
3호선,도곡,서울특별시 강남구 도곡동 339-2 도곡역(3호선),서울특별시 강남구 남부순환로 지하2814(도곡동),02-6110-3441,37.4908647717187,127.05532337372
3호선,대치,서울특별시 강남구 대치동 317-3 대치역(3호선),서울특별시 강남구 남부순환로 지하2952(대치동),02-6110-3451,37.4945627553067,127.063430193449
3호선,학여울,서울특별시 강남구 대치동 514-3 학여울역(3호선),서울특별시 강남구 남부순환로 지하3104(대치동),02-6110-3461,37.4967171864138,127.071718971861
3호선,대청,서울특별시 강남구 일원동 700-9 대청역(3호선),서울특별시 강남구 일원로 지하2(일원동),02-6110-3471,37.4937218597788,127.079493645766
3호선,일원,서울특별시 강남구 일원동 717 일원역(3호선),서울특별시 강남구 일원로 지하121(일원동),02-6110-3481,37.4840735840284,127.084451750048
3호선,수서,서울특별시 강남구 수서동 728 수서역(3호선),서울특별시 강남구 광평로 지하270(수서동),02-6110-3491,37.4873889933503,127.101859191018
3호선,가락시장,서울특별시 송파구 가락동 184-23 가락시장역(3호선),서울특별시 송파구 송파대로 지하257(가락동),02-6110-3501,37.4927440321316,127.118485741487
3호선,경찰병원,서울특별시 송파구 가락동 10-15 경찰병원역(3호선),서울특별시 송파구 중대로 지하149(가락동),02-6110-3511,37.4956031419934,127.124067847413
3호선,오금,서울특별시 송파구 오금동 44-2 오금역(3호선),서울특별시 송파구 오금로 지하321(오금동),02-6110-3521,37.5022659793733,127.127879247544
4호선,당고개,서울특별시 노원구 상계동 111 당고개역(4호선),서울특별시 노원구 상계로 305(상계동),02-6110-4091,37.6702926448965,127.079011159467
4호선,상계,서울특별시 노원구 상계동 156-203 상계역(4호선),서울특별시 노원구 상계로 182(상계동),02-6110-4101,37.6609038887184,127.073575379339
4호선,노원,서울특별시 노원구 상계동 602-5 노원역(4호선),서울특별시 노원구 상계로 69-1(상계동),02-6110-4111,37.6562677764281,127.063030448739
4호선,창동,서울특별시 도봉구 창동 135-1 창동역(4호선),서울특별시 도봉구 마들로11길 77(창동),02-6110-4121,37.6532084846758,127.04768378525
4호선,쌍문,서울특별시 도봉구 창동 703-4 쌍문역(4호선),서울특별시 도봉구 도봉로 지하 486-1(창동),02-6110-4131,37.6488498649136,127.034880717215
4호선,수유(강북구청),서울특별시 강북구 수유동 140 수유역(4호선),서울특별시 강북구 도봉로 지하338(수유동),02-6110-4141,37.6377452337445,127.025356901379
4호선,미아(서울사이버대학),서울특별시 강북구 미아동 194-1 미아역(4호선),서울특별시 강북구 도봉로 지하198(미아동),02-6110-4151,37.6264436445109,127.026103434413
4호선,미아사거리 ,서울특별시 강북구 미아동 66-1 미아사거리역(4호선),서울특별시 강북구 도봉로 지하50(미아동),02-6110-4161,37.6132861094991,127.030098418544
4호선,길음,서울특별시 성북구 길음동 877-66 길음역(4호선),서울특별시 성북구 동소문로 지하248(길음동),02-6110-4171,37.6028525619666,127.024653125727
4호선,성신여대입구(돈암),서울특별시 성북구 동선동4가 1 성신여대입구역(4호선),서울특별시 성북구 동소문로 지하102(동선동4가),02-6110-4181,37.5927179261346,127.016477649743
4호선,한성대입구(삼선교),서울특별시 성북구 삼선동1가 14 한성대입구역(4호선),서울특별시 성북구 삼선교로 지하1(삼선동1가),02-6110-4191,37.5883948842004,127.00595033342
4호선,혜화,서울특별시 종로구 명륜4가 96-5 혜화역(4호선),서울특별시 종로구 대학로 지하120(명륜4가),02-6110-4201,37.5818036223189,127.001978401429
4호선,동대문,서울특별시 종로구 종로6가 287-1 동대문역(4호선),서울특별시 종로구 율곡로 지하308(종로6가),02-6110-4211,37.5704117093421,127.009546610861
4호선,동대문역사문화공원(DDP),서울특별시 중구 광희동2가 9 동대문역사문화공원역(4호선),서울특별시 중구 장충단로 지하230(광희동2가),02-6110-4221,37.5650787698586,127.007550653481
4호선,충무로,서울특별시 중구 필동2가 16-2 충무로역(4호선),서울특별시 중구 퇴계로 지하214(필동2가),02-6110-4231,37.5612890978954,126.994207448462
4호선,명동,서울특별시 중구 충무로2가 109-2 명동역(4호선),서울특별시 중구 퇴계로 지하126(충무로2가),02-6110-4241,37.5609100751113,126.985947030389
4호선,회현(남대문시장),서울특별시 중구 남창동 64-1 회현역(4호선),서울특별시 중구 퇴계로 지하54(남창동),02-6110-4251,37.5585353196435,126.978239147279
4호선,서울,서울특별시 용산구 동자동 14-151 서울역 (4호선),서울특별시 용산구 한강대로 지하392(동자동),02-6110-4261,37.5532000173323,126.972805485095
4호선,숙대입구(갈월),서울특별시 용산구 갈월동 16-7 숙대입구역(4호선),서울특별시 용산구 한강대로 지하306(갈월동),02-6110-4271,37.5451939759064,126.971872351838
4호선,삼각지,서울특별시 용산구 한강로1가 228-1 삼각지역(4호선),서울특별시 용산구 한강대로 지하180(한강로1가),02-6110-4281,37.5345937063675,126.973011032988
4호선,신용산,서울특별시 용산구 한강로2가 181 신용산역(4호선),서울특별시 용산구 한강대로 지하112(한강로2가),02-6110-4291,37.5296155628471,126.968215931799
4호선,이촌(국립중앙박물관),서울특별시 용산구 용산동5가 17-112 이촌역(4호선),서울특별시 용산구 서빙고로 지하83(용산동5가),02-6110-4301,37.522520254623,126.973683151228
4호선,동작(현충원),서울특별시 동작구 동작동 327-1 동작역(4호선),서울특별시 동작구 현충로 257(동작동),02-6110-4311,37.5028703671011,126.980268385443
4호선,총신대입구(이수),서울특별시 동작구 사당동 736-1 총신대입구(이수)역(4호선),서울특별시 동작구 동작대로 지하117(사당동),02-6110-4321,37.4875538278198,126.982199707405
4호선,사당,서울특별시 동작구 사당동 588-44 사당역(4호선),서울특별시 동작구  동작대로 지하3(사당동),02-6110-4331,37.4768632653727,126.981595139341
4호선,남태령,서울특별시 서초구 방배동 2909 남태령역(4호선),서울특별시 서초구 과천대로 지하816(방배동),02-6110-4341,37.4648575576518,126.988656544337
5호선,방화,서울특별시 강서구 방화동 829-15 방화역(5호선),서울특별시 강서구 금낭화로 지하132(방화동),02-6311-5101,37.5770031079469,126.81262993382
5호선,개화산,서울특별시 강서구 방화동 846 개화산역(5호선),서울특별시 강서구 양천로 22(방화동),02-6311-5111,37.572270024754,126.806001672732
5호선,김포공항,서울특별시 강서구 방화동 886 김포공항역(5호선),서울특별시 강서구 하늘길 지하77(방화동),02-6311-5121,37.562313207852,126.801278424065
5호선,송정,서울특별시 강서구 공항동 29-5 송정역(5호선),서울특별시 강서구 공항대로 지하33(공항동),02-6311-5131,37.5614775483136,126.811055407613
5호선,마곡,서울특별시 강서구 마곡동 769-3 마곡역(5호선),서울특별시 강서구 공항대로 지하163(마곡동),02-6311-5141,37.5601984535897,126.825547992125
5호선,발산,서울특별시 강서구 마곡동 727-1496 발산역(5호선),서울특별시 강서구 공항대로 지하267(마곡동),02-6311-5151,37.5590292668195,126.837310771961
5호선,우장산,서울특별시 강서구 화곡동 1089-3 우장산역(5호선),서울특별시 강서구 강서로 지하262(화곡동),02-6311-5161,37.5490001953873,126.836408931785
5호선,화곡,서울특별시 강서구 화곡동 1089-54 화곡역(5호선),서울특별시 강서구 화곡로 지하168(화곡동),02-6311-5171,37.5414336176977,126.840496450153
5호선,까치산,서울특별시 강서구 화곡동 662-5 까치산역(5호선),서울특별시 강서구 강서로 지하54(화곡동),02-6311-5181,37.5319560847746,126.846611592059
5호선,신정(은행정),서울특별시 양천구 신정동 1090 신정역(5호선),서울특별시 양천구 오목로 지하179(신정동),02-6311-5191,37.5252107928783,126.857290392028
5호선,목동,서울특별시 양천구 목동 926-3 목동역(5호선),서울특별시 양천구 오목로 지하245(목동),02-6311-5201,37.52619868083,126.864742584692
5호선,오목교(목동운동장앞),서울특별시 양천구 목동 406-30 오목교역(5호선),서울특별시 양천구 오목로 지하342(목동),02-6311-5211,37.5244500703802,126.875354626254
5호선,양평,서울특별시 영등포구 양평동2가 33-79 양평역(5호선),서울특별시 영등포구 양산로 지하21(양평동2가),02-6311-5221,37.5255116853806,126.886865676125
5호선,영등포구청,서울특별시 영등포구 당산동3가 556-1 영등포구청역(5호선),서울특별시 영등포구 양산로 지하116(당산동3가),02-6311-5231,37.5242266062117,126.895289064995
5호선,영등포시장,서울특별시 영등포구 영등포동5가 62-1 영등포시장역(5호선),서울특별시 영등포구 양산로 지하200(영등포동5가),02-6311-5241,37.5227345248969,126.904959169819
5호선,신길,서울특별시 영등포구 영등포동1가 35 신길역(5호선),서울특별시 영등포구 경인로114가길 지하9(영등포동1가),02-6311-5251,37.5176677017212,126.914336937521
5호선,여의도,서울특별시 영등포구 여의도동 3 여의도역(5호선),서울특별시 영등포구 여의나루로 지하40(여의도동),02-6311-5261,37.5218423045786,126.924484687694
5호선,여의나루,서울특별시 영등포구 여의도동 84-4 여의나루역(5호선),서울특별시 영등포구 여의동로 지하343(여의도동),02-6311-5271,37.5270851610199,126.932863954929
5호선,마포,서울특별시 마포구 도화동 160 마포역(5호선),서울특별시 마포구 마포대로 지하33(도화동),02-6311-5281,37.5395837885645,126.945920370023
5호선,공덕,서울특별시 마포구 공덕동 423-29 공덕역(5호선),서울특별시 마포구 마포대로 지하100(공덕동),02-6311-5291,37.5445267873155,126.951363830233
5호선,애오개,서울특별시 마포구 아현동 612 애오개역(5호선),서울특별시 마포구 마포대로 지하210(아현동),02-6311-5301,37.5533624029594,126.95661326016
5호선,충정로(경기대입구),서울특별시 서대문구 충정로3가 248-1 충정로역(5호선),서울특별시 서대문구 충정로 지하 28-1(충정로3가),02-6311-5311,37.5609934378336,126.963373255365
5호선,서대문,서울특별시 종로구 평동 210 서대문역(5호선),서울특별시 종로구 통일로 지하126(평동),02-6311-5321,37.565856271913,126.966637398787
5호선,광화문(세종문화회관),서울특별시 종로구 세종로 1-68 5호선 광화문역(5호선),서울특별시 종로구 세종대로 지하172(세종로),02-6311-5331,37.5716228232824,126.976787992565
5호선,종로3가(탑골공원),서울특별시 종로구 돈의동 39-1 5호선 종로3가역(5호선),서울특별시 종로구 돈화문로11길 지하 26(돈의동),02-6311-5341,37.5725695604894,126.99006167065
5호선,을지로4가,서울특별시 중구 주교동 191 을지로4가역(5호선),서울특별시 중구 창경궁로 지하51(주교동),02-6311-5351,37.5675250192617,126.998059555897
5호선,동대문역사문화공원(DDP),서울특별시 중구 광희동1가 235-6 동대문역사문화공원역(5호선),서울특별시 중구 마른내로 지하162(광희동1가),02-6311-5361,37.5645770081888,127.005916180124
5호선,청구,서울특별시 중구 신당동 295-2 청구역(5호선),서울특별시 중구 청구로 지하77(신당동),02-6311-5371,37.5602939125022,127.013806006802
5호선,신금호,서울특별시 성동구 금호동2가 223-1 신금호역(5호선),서울특별시 성동구 금호로 지하154(금호동2가),02-6311-5381,37.5545324884294,127.020064146247
5호선,행당,서울특별시 성동구 행당동 317-241 행당역(5호선),서울특별시 성동구 행당로 지하89(행당동),02-6311-5391,37.5572784369263,127.029232035475
5호선,왕십리(성동구청),서울특별시 성동구 행당동 192 왕십리역(5호선),서울특별시 성동구 왕십리로 지하300(행당동),02-6311-5401,37.5612217415191,127.036655378283
5호선,마장,서울특별시 성동구 마장동 804 마장역(5호선),서울특별시 성동구 마장로 지하296(마장동),02-6311-5411,37.5662827804848,127.043163438528
5호선,답십리,서울특별시 성동구 용답동 99 답십리역(5호선),서울특별시 성동구 천호대로 지하300(용답동),02-6311-5421,37.5664458277827,127.05318095956
5호선,장한평,서울특별시 동대문구 장안동 472-3 장한평역(5호선),서울특별시 동대문구 천호대로 지하405(장안동),02-6311-5431,37.5615026802954,127.064421108758
5호선,군자(능동),서울특별시 광진구 능동 275-5 군자(능동)역(5호선),서울특별시 광진구 천호대로 지하550(능동),02-6311-5441,37.5573631939521,127.079017279019
5호선,아차산(어린이대공원후문),서울특별시 광진구 능동 256-16 5호선 아차산역(5호선),서울특별시 광진구 천호대로 지하657(능동),02-6311-5451,37.5524011361136,127.08937059931
5호선,광나루(장신대),서울특별시 광진구 광장동 237 광나루역(5호선),서울특별시 광진구 아차산로 지하571(광장동),02-6311-5461,37.5452786641598,127.103686533578
5호선,천호(풍납토성),서울특별시 강동구 천호동 455 천호역(5호선),서울특별시 강동구 천호대로 지하997(천호동),02-6311-5471,37.5385789820645,127.123742434482
5호선,강동,서울특별시 강동구 천호동 447 강동역(5호선),서울특별시 강동구 천호대로 지하1097(천호동),02-6311-5481,37.5357793773303,127.132720388453
5호선,길동,서울특별시 강동구 길동 378 길동역(5호선),서울특별시 강동구 양재대로 지하1480(길동),02-6311-5491,37.5378115570072,127.13999920444
5호선,굽은다리(강동구민회관앞),서울특별시 강동구 명일동 345-12 굽은다리역(5호선),서울특별시 강동구 양재대로 지하1572(명일동),02-6311-5501,37.5457314720664,127.142970847846
5호선,명일,서울특별시 강동구 명일동 312 명일역(5호선),서울특별시 강동구 양재대로 지하1632(명일동),02-6311-5511,37.551257212513,127.144000696892
5호선,고덕,서울특별시 강동구 고덕동 310 고덕역(5호선),서울특별시 강동구 고덕로 지하253(고덕동),02-6311-5521,37.5550473189056,127.15394941502
5호선,상일동,서울특별시 강동구 상일동 148 상일동역(5호선),서울특별시 강동구 고덕로 지하359(상일동),02-6311-5531,37.5566643781876,127.165829221931
5호선,둔촌동,서울특별시 강동구 둔촌동 416 둔촌동역(5호선),서울특별시 강동구 양재대로 지하1369(둔촌동),02-6311-5541,37.5276413733277,127.136190298465
5호선,올림픽공원(한국체대),서울특별시 송파구 방이동 89-28 올림픽공원역(5호선),서울특별시 송파구 양재대로 지하1233(방이동),02-6311-5551,37.5160876492782,127.130600140827
5호선,방이,서울특별시 송파구 방이동 217-2 방이역(5호선),서울특별시 송파구 양재대로 지하1127(방이동),02-6311-5561,37.5085564458698,127.125854699016
5호선,오금,서울특별시 송파구 오금동 44-2 오금역(5호선),서울특별시 송파구 오금로 지하321(오금동),02-6110-3521,37.5022659793733,127.127879247544
5호선,개롱,서울특별시 송파구 가락동 165-2 개롱역(5호선),서울특별시 송파구 오금로 지하402(가락동),02-6311-5581,37.4978146566399,127.135158595127
5호선,거여,서울특별시 송파구 거여동 20-14 거여역(5호선),서울특별시 송파구 오금로 지하499(거여동),02-6311-5591,37.4932073280335,127.144032331306
5호선,마천,서울특별시 송파구 마천동 307-4 마천역(5호선),서울특별시 송파구 마천로57길 지하7(마천동),02-6311-5601,37.4946706182588,127.152320621872
5호선,강일,서울특별시 강동구 상일동 산73 강일역(5호선),서울특별시 강동구 고덕로 지하456(강일동),02-6311-5611,37.5575265973614,127.175938009116
5호선,미사,경기도 하남시 망월동 1122 미사역(5호선),경기도 하남시 미사강변동로 지하90(망월동),02-6311-5621,37.5632538224357,127.192978917193
5호선,하남풍산,경기도 하남시 덕풍동 727-3 하남풍산역(5호선),경기도 하남시 덕풍서로 지하50(덕풍동),02-6311-5631,37.5520576727898,127.203870649661
5호선,하남시청(덕풍?신장),경기도 하남시 덕풍동 405-1 하남시청(덕풍신장)역(5호선),경기도 하남시 하남대로 지하820(덕풍동),02-6311-5641,37.5419220287008,127.206391020861
5호선,하남검단산,경기도 하남시 창우동 526 하남검단산역(5호선),경기도 하남시 대청로 지하100(창우동),02-6311-5651,37.5397591397808,127.22344448627
6호선,응암,서울특별시 은평구 신사동 22-15 응암역(6호선),서울특별시 은평구 증산로 지하477(신사동),02-6311-6101,37.5987423282207,126.915512801302
6호선,역촌,서울특별시 은평구 녹번동 153-31 역촌역(6호선),서울특별시 은평구 서오릉로 지하63(녹번동),02-6311-6111,37.6060390534435,126.922967946327
6호선,불광,서울특별시 은평구 대조동 13-10 불광역(6호선),서울특별시 은평구 통일로 지하723-1(대조동),02-6311-6121,37.6102072578868,126.92998576213
6호선,독바위,서울특별시 은평구 불광동 13-33 독바위역(6호선),서울특별시 은평구 불광로 지하129-1(불광동),02-6311-6131,37.6183988849915,126.932810138476
6호선,연신내,서울특별시 은평구 갈현동 397 연신내역(6호선),서울특별시 은평구 통일로 지하849(갈현동),02-6110-3211,37.618962003178,126.921162124977
6호선,구산,서울특별시 은평구 구산동 1 구산역(6호선),서울특별시 은평구 연서로 지하137-1(구산동),02-6311-6151,37.6112122196295,126.917182386796
6호선,새절(신사),서울특별시 은평구 신사동 337-5 새절역(6호선),서울특별시 은평구 증산로 지하400(신사동),02-6311-6161,37.5918270544017,126.913911983591
6호선,증산(명지대앞),서울특별시 은평구 증산동 199-8 증산역(6호선),서울특별시 은평구 증산로 지하306(증산동),02-6311-6171,37.5841954778004,126.910057587886
6호선,디지털미디어시티,서울특별시 은평구 증산동 223-25 디지털미디어시티역(6호선),서울특별시 은평구 수색로 지하175(증산동),02-6311-6181,37.5771614352661,126.901928562926
6호선,월드컵경기장(성산),서울특별시 마포구 성산동 420 월드컵경기장역(6호선),서울특별시 마포구 월드컵로 지하240(성산동),02-6311-6191,37.569942569034,126.899033325814
6호선,마포구청,서울특별시 마포구 성산동 592 마포구청역(6호선),서울특별시 마포구 월드컵로 지하190(성산동),02-6311-6201,37.5634263131969,126.903356973848
6호선,망원,서울특별시 마포구 망원동 378 망원역(6호선),서울특별시 마포구 월드컵로 지하77(망원동),02-6311-6211,37.5560572923314,126.910033925408
6호선,합정,서울특별시 마포구 합정동 414 합정역(6호선),서울특별시 마포구 양화로 지하45(합정동),02-6311-6221,37.5492591944858,126.913190884167
6호선,상수,서울특별시 마포구 상수동 309-10 상수역(6호선),서울특별시 마포구 독막로 지하85(상수동),02-6311-6231,37.5477716665856,126.922409857908
6호선,광흥창(서강),서울특별시 마포구 창전동 145-17 광흥창역(6호선),서울특별시 마포구 독막로 지하165(창전동),02-6311-6241,37.5474860706906,126.931939240491
6호선,대흥(서강대앞),서울특별시 마포구 대흥동 128-1 대흥역(6호선),서울특별시 마포구 대흥로 지하85(대흥동),02-6311-6251,37.5476683544726,126.942465251709
6호선,공덕,서울특별시 마포구 공덕동 439 공덕역(6호선),서울특별시 마포구 백범로 지하200(공덕동),02-6311-5291,37.543526917067,126.951947569181
6호선,효창공원앞,서울특별시 용산구 효창동 80 효창공원앞역(6호선),서울특별시 용산구 백범로 지하287(효창동),02-6311-6271,37.5393766399926,126.961258439813
6호선,삼각지,서울특별시 용산구 한강로1가 228-1 삼각지역(6호선),서울특별시 용산구 한강대로 지하185(한강로1가),02-6311-6281,37.5356450533976,126.974080538316
6호선,녹사평(용산구청),서울특별시 용산구 용산동4가 4 녹사평역(6호선),서울특별시 용산구 녹사평대로 지하195(용산동4가),02-6311-6291,37.5348314193581,126.987028473368
6호선,이태원,서울특별시 용산구 이태원동 119-23 이태원역(6호선),서울특별시 용산구 이태원로 지하177(이태원동),02-6311-6301,37.534483277545,126.993721655506
6호선,한강진,서울특별시 용산구 한남동 726-494 한강진역(6호선),서울특별시 용산구 이태원로 지하287(한남동),02-6311-6311,37.5402951544226,127.001748287649
6호선,버티고개,서울특별시 중구 신당동 366-454 버티고개역(6호선),서울특별시 중구 다산로 지하38(신당동),02-6311-6321,37.5480418375007,127.007084969776
6호선,약수,서울특별시 중구 신당동 369-2 약수역(6호선),서울특별시 중구 다산로 지하115(신당동),02-6311-6331,37.5538914380831,127.010120543543
6호선,청구,서울특별시 중구 신당동 295-2 청구역(6호선),서울특별시 중구 청구로 지하77(신당동),02-6311-5371,37.5602939125022,127.013806006802
6호선,신당,서울특별시 중구 흥인동 162-1 신당역(6호선),서울특별시 중구 다산로 지하260(흥인동),02-6311-6351,37.5662738884121,127.016153533586
6호선,동묘앞,서울특별시 종로구 숭인동 316-3 동묘앞역(6호선),서울특별시 종로구 지봉로 지하24(숭인동),02-6311-6361,37.5722005208773,127.015678133819
6호선,창신,서울특별시 종로구 창신동 20-8 창신역(6호선),서울특별시 종로구 지봉로 지하112(창신동),02-6311-6371,37.5800168892429,127.015211194258
6호선,보문,서울특별시 성북구 보문동1가 127-1 보문역(6호선),서울특별시 성북구 보문로 지하116(보문동1가),02-6311-6381,37.5853277238848,127.019386983515
6호선,안암(고대병원앞),서울특별시 성북구 안암동5가 146-1 안암역(6호선),서울특별시 성북구 고려대로 지하89(안암동5가),02-6311-6391,37.5862804833256,127.029213030111
6호선,고려대(종암),서울특별시 성북구 종암동 29-18 고려대역(6호선),서울특별시 성북구 종암로 지하1(종암동),02-6311-6401,37.5909411446657,127.036326984187
6호선,월곡(동덕여대),서울특별시 성북구 하월곡동 35-1 월곡역(6호선),서울특별시 성북구 월곡로 지하107(하월곡동),02-6311-6411,37.6014244753138,127.041187033214
6호선,상월곡(한국과학기술연구원),서울특별시 성북구 상월곡동 26-1 상월곡역(6호선),서울특별시 성북구 화랑로 지하157(상월곡동),02-6311-6421,37.6062644995455,127.048327301764
6호선,돌곶이,서울특별시 성북구 석관동 349-8 돌곶이역(6호선),서울특별시 성북구 화랑로 지하243(석관동),02-6311-6431,37.6105454752639,127.056415926651
6호선,석계,서울특별시 노원구 월계동 25-2 석계역(6호선),서울특별시 노원구 화랑로 지하 347-1(월계동) ,02-6311-6441,37.6150480846952,127.066118430844
6호선,태릉입구,서울특별시 노원구 공릉동 616-4 태릉입구역(6호선),서울특별시 노원구 동일로 지하 992-1(공릉동),02-6311-7171,37.6185137762138,127.075368429731
6호선,화랑대(서울여대입구),서울특별시 노원구 공릉동 285-2 화랑대역(6호선),서울특별시 노원구 화랑로 지하510(공릉동),02-6311-6461,37.6198943887187,127.083744624338
6호선,봉화산(서울의료원),서울특별시 중랑구 신내동 643-1 봉화산역(6호선),서울특별시 중랑구 신내로 지하232(신내동),02-6311-6471,37.6176537624438,127.090758129505
6호선,신내,서울특별시 중랑구 신내동 19 신내역(6호선),서울특별시 중랑구 용마산로136길 33 신내차량기지,02-6311-6481,37.6100945305971,127.110257980303
7호선,장암,경기도 의정부시 장암동 160-8 장암역(7호선),경기도 의정부시 동일로 121(장암동),02-6311-7091,37.7001189599459,127.053135359006
7호선,도봉산,서울특별시 도봉구 도봉동 38-3 도봉산역(7호선),서울특별시 도봉구 도봉로 964-40(도봉동),02-6311-7101,37.6891205614059,127.046528790935
7호선,수락산,서울특별시 노원구 상계동 1132-9 수락산역(7호선),서울특별시 노원구 동일로 지하1662(상계동),02-6311-7111,37.6776259369995,127.055374584266
7호선,마들,서울특별시 노원구 상계동 650 마들역(7호선),서울특별시 노원구 동일로 지하1530-1(상계동),02-6311-7121,37.6650864331785,127.057687709213
7호선,노원,서울특별시 노원구 상계동 729 노원역(7호선),서울특별시 노원구 동일로 지하1409(상계동),02-6311-7131,37.6546947161168,127.060517410251
7호선,중계,서울특별시 노원구 중계동 503-3 중계역(7호선),서울특별시 노원구 동일로 지하1308-1(중계동),02-6311-7141,37.6448906789921,127.064246723057
7호선,하계,서울특별시 노원구 하계동 273-5 하계역(7호선),서울특별시 노원구 동일로 지하1196(하계동),02-6311-7151,37.6364521240646,127.067988537404
7호선,공릉(서울과학기술대),서울특별시 노원구 공릉동 385-4 공릉역(7호선),서울특별시 노원구 동일로 지하1074(공릉동),02-6311-7161,37.6254769202851,127.073005201049
7호선,태릉입구,서울특별시 노원구 공릉동 616-4 태릉입구역(7호선),서울특별시 노원구 동일로 지하 992-1(공릉동),02-6311-7171,37.6185137762138,127.075368429731
7호선,먹골,서울특별시 중랑구 묵동 189-5 먹골역(7호선),서울특별시 중랑구 동일로 지하901(묵동),02-6311-7181,37.6106250591244,127.077764798784
7호선,중화,서울특별시 중랑구 중화동 50-3 중화역(7호선),서울특별시 중랑구 동일로 지하797(중화동),02-6311-7191,37.6015796992834,127.079469204905
7호선,상봉,서울특별시 중랑구 상봉동 100-9 상봉역(7호선),서울특별시 중랑구 망우로 297(상봉동),02-6311-7201,37.5967093285386,127.085741817289
7호선,면목,서울특별시 중랑구 면목동 282-6 면목역(7호선),서울특별시 중랑구 면목로 지하407(면목동) ,02-6311-7211,37.5883848968931,127.087567841531
7호선,사가정,서울특별시 중랑구 면목동 495 사가정역(7호선),서울특별시 중랑구 사가정로 지하393(면목동),02-6311-7221,37.5807945533834,127.088439058456
7호선,용마산(용마폭포공원),서울특별시 중랑구 면목동 1316-5 용마산역(7호선),서울특별시 중랑구 용마산로 지하227(면목동),02-6311-7231,37.5740302107904,127.087038114766
7호선,중곡,서울특별시 광진구 중곡동 273-2 7호선 중곡역(7호선),서울특별시 광진구 능동로 지하417(중곡동),02-6311-7241,37.5655258842084,127.084072412789
7호선,군자(능동),서울특별시 광진구 능동 275-5 군자(능동)역(7호선),서울특별시 광진구 천호대로 지하550(능동),02-6311-5441,37.5573631939521,127.079017279019
7호선,어린이대공원(세종대),서울특별시 광진구 화양동 164-1 어린이대공원역(7호선),서울특별시 광진구 능동로 지하210(화양동),02-6311-7261,37.547871203305,127.074549925093
7호선,건대입구,서울특별시 광진구 화양동 6-3 건대입구역(7호선),서울특별시 광진구 능동로 지하110(화양동),02-6311-7271,37.5408416053893,127.07104643853
7호선,자양(뚝섬유원지),서울특별시 광진구 자양동 73-2 자양(뚝섬유원지)역(7호선),서울특별시 광진구 능동로 10(자양동),02-6311-7281,37.5317034538759,127.066765925738
7호선,청담,서울특별시 강남구 청담동 77-76 청담역(7호선),서울특별시 강남구 학동로 지하508(청담동),02-6311-7291,37.5194585308732,127.05376714677
7호선,강남구청,서울특별시 강남구 삼성동 111-44 강남구청역(7호선),서울특별시 강남구 학동로 지하346(삼성동),02-6311-7301,37.5171892352971,127.04130142966
7호선,학동,서울특별시 강남구 논현동 279-67 학동역(7호선),서울특별시 강남구 학동로 지하180(논현동),02-6311-7311,37.5142064294604,127.031463762217
7호선,논현,서울특별시 강남구 논현동 279-67 논현역(7호선),서울특별시 강남구 학동로 지하102(논현동),02-6311-7321,37.5111988300765,127.021657861669
7호선,반포,서울특별시 서초구 잠원동 103 반포역(7호선),서울특별시 서초구 신반포로 지하241(잠원동),02-6311-7331,37.5081263886404,127.011497032246
7호선,고속터미널,서울특별시 서초구 반포동 19-11 고속터미널역(7호선),서울특별시 서초구 신반포로 지하188(반포동),02-6311-7341,37.5049267445237,127.004949918697
7호선,내방,서울특별시 서초구 방배동 874-16 내방역(7호선),서울특별시 서초구 서초대로 지하103(방배동),02-6311-7351,37.487533528504,126.993190309509
7호선,이수,서울특별시 동작구 사당동 144-4 이수역(7호선),서울특별시 동작구 사당로 지하310(사당동),02-6311-7361,37.485015143952,126.981021812089
7호선,남성,서울특별시 동작구 사당동 산25-33 남성역(7호선),서울특별시 동작구 사당로 지하218(사당동),02-6311-7371,37.4844433924857,126.971706096071
7호선,숭실대입구(살피재),서울특별시 동작구 상도동 514 숭실대입구역(7호선),서울특별시 동작구 상도로 지하378(상도동),02-6311-7381,37.4958143308836,126.954060246067
7호선,상도,서울특별시 동작구 상도1동 702-1 상도역(중대입구역)(7호선),서울특별시 동작구 상도로 지하272(상도1동),02-6311-7391,37.5032080456431,126.947700373641
7호선,장승배기,서울특별시 동작구 상도동 26-20 장승배기역(7호선),서울특별시 동작구 상도로 지하188(상도동) ,02-6311-7401,37.5046658024741,126.938744364462
7호선,신대방삼거리,서울특별시 동작구 대방동 406-10 신대방삼거리역(7호선),서울특별시 동작구 상도로 지하76(대방동),02-6311-7411,37.4997218266711,126.928222967016
7호선,보라매,서울특별시 동작구 대방동 466-51 보라매역(7호선),서울특별시 동작구 상도로 지하2(대방동),02-6311-7421,37.499910050321,126.920489390309
7호선,신풍,서울특별시 영등포구 신길동 3599 신풍역(7호선),서울특별시 영등포구 신풍로 지하27(신길동),02-6311-7431,37.5001172036762,126.909841656125
7호선,대림(구로구청),서울특별시 영등포구 대림동 1050-17 대림역(7호선),서울특별시 영등포구 도림로 지하137(대림동),02-6311-7441,37.4927430722225,126.896611839343
7호선,남구로,서울특별시 구로구 구로동 801-95 남구로역(7호선),서울특별시 구로구 도림로 지하7(구로동) ,02-6311-7451,37.4861618372855,126.887341021559
7호선,가산디지털단지,서울특별시 금천구 가산동 468-4 가산디지털단지역(7호선),서울특별시 금천구 벚꽃로 309(가산동),02-6311-7461,37.4815957375443,126.882559483336
7호선,철산,경기도 광명시 철산동 526 철산역(7호선),경기도 광명시 철산로 지하13(철산동),02-6311-7471,37.4760980052319,126.868003853399
7호선,광명사거리,경기도 광명시 광명동 158-211 광명사거리역(7호선),경기도 광명시 오리로 지하980(광명동),02-6311-7481,37.4793355805984,126.854703171044
7호선,천왕,서울특별시 구로구 천왕동 14-25 천왕역(7호선),서울특별시 구로구 오리로 지하1154(천왕동),02-6311-7491,37.4868219430207,126.838713741162
7호선,온수(성공회대입구),서울특별시 구로구 온수동 119 온수역(7호선),서울특별시 구로구 경인로3길 지하64(온수동),02-6311-7501,37.4921502838112,126.823380714316
8호선,암사,서울특별시 강동구 암사동 501 암사역(8호선),서울특별시 강동구 올림픽로 지하776(암사동),02-6311-8101,37.5501403417224,127.127540246626
8호선,암사역사공원역,서울특별시 강동구 암사동 378 암사역사공원역(8호선),서울시 강동구 아리수로 27번길 2,02-6311-8091,,
8호선,천호(풍납토성),서울특별시 강동구 천호동 455 천호역(8호선),서울특별시 강동구 천호대로 지하997(천호동),02-6311-5471,37.5385789820645,127.123742434482
8호선,강동구청,서울특별시 강동구 성내동 319 강동구청역(8호선),서울특별시 강동구 올림픽로 지하550(성내동),02-6311-8121,37.5306740877124,127.12057605164
8호선,몽촌토성(평화의문),서울특별시 송파구 신천동 19 몽촌토성역(8호선),서울특별시 송파구 올림픽로 지하383(신천동),02-6311-8131,37.5176236317445,127.112429917071
8호선,잠실(송파구청),서울특별시 송파구 신천동 7-4 잠실역(8호선),서울특별시 송파구 올림픽로 305(신천동),02-6311-8141,37.5149771693164,127.10421637903
8호선,석촌,서울특별시 송파구 석촌동 209 석촌역(8호선),서울특별시 송파구 송파대로 지하439(석촌동),02-6311-8151,37.5059496431187,127.106345349428
8호선,송파,서울특별시 송파구 가락동 459-4 송파역(8호선),서울특별시 송파구 송파대로 지하354(가락동),02-6311-8161,37.4996866748478,127.112179893361
8호선,가락시장,서울특별시 송파구 가락동 184-23 가락시장역(8호선),서울특별시 송파구 송파대로 지하257(가락동),02-6311-8171,37.4927440321316,127.118485741487
8호선,문정,서울특별시 송파구 문정동 119-4 문정역(8호선),서울특별시 송파구 송파대로 지하179(문정동),02-6311-8181,37.4862618233383,127.122290332976
8호선,장지,서울특별시 송파구 장지동 201-5 장지역(8호선),서울특별시 송파구 송파대로 지하82(장지동),02-6311-8191,37.4781192050612,127.126424204036
8호선,복정,서울특별시 송파구 장지동 596-21 복정역(8호선),서울특별시 송파구 송파대로 지하6(장지동),02-6311-8201,37.4710560005054,127.126771228018
8호선,남위례,경기도 성남시 수정구 복정동 57 남위례역(8호선),경기도 성남시 수정구 공원로 601(복정동),02-6311-8211,37.4630404450338,127.139246012903
8호선,산성,경기도 성남시 수정구 신흥동 7 산성역(8호선),경기도 성남시 수정구 수정로 지하365(신흥동),02-6311-8221,37.456524575777,127.149943523317
8호선,남한산성입구(성남법원?검찰청),경기도 성남시 수정구 단대동 96 남한산성입구역(8호선),경기도 성남시 수정구 산성대로 지하445(단대동),02-6311-8231,37.4515683423116,127.159802461468
8호선,단대오거리,경기도 성남시 수정구 신흥동 2467 단대오거리역(8호선),경기도 성남시 수정구 산성대로 지하365(신흥동),02-6311-8241,37.4451431531719,127.156687885923
8호선,신흥,경기도 성남시 수정구 신흥동 2467 신흥역(8호선),경기도 성남시 수정구 산성대로 지하280(신흥동),02-6311-8251,37.4411840785188,127.148107604929
8호선,수진,경기도 성남시 수정구 수진동 2205-1 수진역(8호선),경기도 성남시 수정구 산성대로 지하200(수진동),02-6311-8261,37.4374594671775,127.1403519473
8호선,모란,경기도 성남시 수정구 수진동 4518 모란역(8호선),경기도 성남시 수정구 산성대로 지하100(수진동),02-6311-8271,37.4338501673337,127.129551165797
9호선,언주,서울특별시 강남구 논현동 279-165 언주역(9호선),서울특별시 강남구 봉은사로 지하201(논현동),02-2656-0926,37.5074454982119,127.034284713238
9호선,선정릉,서울특별시 강남구 삼성동 111-114 선정릉역(9호선),서울특별시 강남구 선릉로 지하580(삼성동),02-2656-0927,37.5108538860091,127.043641042222
9호선,삼성중앙,서울특별시 강남구 삼성동 111-147 삼성중앙역(9호선),서울특별시 강남구 봉은사로 지하501(삼성동),02-2656-0928,37.5128830348855,127.052705651591
9호선,봉은사,서울특별시 강남구 삼성동 172 봉은사역(9호선),서울특별시 강남구 봉은사로 지하601(삼성동),02-2656-0929,37.5143606191744,127.060891874786
9호선,종합운동장,서울특별시 송파구 잠실동 123 종합운동장역(9호선),서울특별시 송파구 올림픽로 49(잠실동),02-2656-0930,37.5114806299192,127.076008084574
9호선,삼전,서울특별시 송파구 잠실동 347 삼전역(9호선),서울특별시 송파구 백제고분로 지하189(잠실동),02-2656-0931,37.504501913851,127.087445571156
9호선,석촌고분,서울특별시 송파구 삼전동 157-1 석촌고분역(9호선),서울특별시 송파구 백제고분로 지하274(삼전동),02-2656-0932,37.5024703189666,127.096703734242
9호선,석촌,서울특별시 송파구 석촌동 209 석촌역(9호선),서울특별시 송파구 송파대로 지하439(석촌동),02-2656-0933,37.5059496431187,127.106345349428
9호선,송파나루,서울특별시 송파구 방이동 2 송파나루역(9호선),서울특별시 송파구 백제고분로 지하446(방이동),02-2656-0934,37.5106316985927,127.112393866995
9호선,한성백제,서울특별시 송파구 방이동 88-17 한성백제역(9호선),서울특별시 송파구 위례성대로 지하29(방이동),02-2656-0935,37.5164647953901,127.116303251765
9호선,올림픽공원(한국체대),서울특별시 송파구 방이동 89-28 올림픽공원역(9호선),서울특별시 송파구 양재대로 지하1233(방이동),02-2656-0936,37.5160876492782,127.130600140827
9호선,둔촌오륜,서울특별시 강동구 둔촌동 227-7 둔촌오륜역(9호선),서울특별시 강동구 강동대로 지하303(둔촌동),02-2656-0937,37.5194090259388,127.138423684558
9호선,중앙보훈병원,서울특별시 강동구 둔촌동 8-1 중앙보훈병원역(9호선),서울특별시 강동구 동남로 지하625(둔촌동),02-2656-0938,37.5288957241892,127.148541966332
